{
  "type": "FeatureCollection",
  "metadata": {
    "_comment": "Curated Malawi tourist attractions for the animated-pin layer. Names, categories, coordinates and descriptions are factual (not copyrightable). PHOTOS ARE NOT BUNDLED — drop licensed image URLs into each feature's properties.images[] (own/official/Creative-Commons photos). The `website` links to an official site or a Wikipedia article; replace lodge entries with the operator's booking site. See README 'Tourist attractions'.",
    "license": "Text facts public domain. Images: supply your own licensed URLs. Websites: external links (linking is fine; embedding may be blocked by the target site).",
    "featureSchema": {
      "geometry": "Point (WGS84 / EPSG:4326)",
      "properties": {
        "id": "string",
        "name": "string",
        "level": "attraction",
        "category": "national-park | reserve | mountain | plateau | lake | beach | island | waterfall | cultural | lodge | landmark",
        "region": "string",
        "description": "string",
        "website": "url (official site or info page)",
        "images": "string[] (licensed image URLs; empty → styled placeholder)"
      }
    }
  },
  "features": [
    { "type": "Feature", "properties": { "id": "att-capemaclear", "name": "Cape Maclear (Lake Malawi NP)", "level": "attraction", "category": "beach", "region": "Southern Region", "description": "Golden beaches and clear snorkelling waters in the world's first freshwater national park.", "website": "https://en.wikipedia.org/wiki/Lake_Malawi_National_Park", "images": [] }, "geometry": { "type": "Point", "coordinates": [34.88, -14.02] } },
    { "type": "Feature", "properties": { "id": "att-mumbo", "name": "Mumbo Island", "level": "attraction", "category": "island", "region": "Southern Region", "description": "Tiny eco-lodge island off Cape Maclear, famed for kayaking and snorkelling.", "website": "https://en.wikipedia.org/wiki/Special:Search?search=Mumbo%20Island%20Malawi", "images": [] }, "geometry": { "type": "Point", "coordinates": [34.78, -14.00] } },
    { "type": "Feature", "properties": { "id": "att-likoma", "name": "Likoma Island", "level": "attraction", "category": "island", "region": "Northern Region", "description": "Lake island home to the grand St Peter's Anglican Cathedral.", "website": "https://en.wikipedia.org/wiki/Likoma_Island", "images": [] }, "geometry": { "type": "Point", "coordinates": [34.73, -12.07] } },
    { "type": "Feature", "properties": { "id": "att-liwonde", "name": "Liwonde National Park", "level": "attraction", "category": "national-park", "region": "Southern Region", "description": "Premier safari park on the Shire River — elephants, hippos, rhinos and big cats.", "website": "https://en.wikipedia.org/wiki/Liwonde_National_Park", "images": [] }, "geometry": { "type": "Point", "coordinates": [35.32, -14.82] } },
    { "type": "Feature", "properties": { "id": "att-majete", "name": "Majete Wildlife Reserve", "level": "attraction", "category": "reserve", "region": "Southern Region", "description": "Restored Big Five reserve in the lower Shire valley, run by African Parks.", "website": "https://en.wikipedia.org/wiki/Majete_Wildlife_Reserve", "images": [] }, "geometry": { "type": "Point", "coordinates": [34.75, -15.95] } },
    { "type": "Feature", "properties": { "id": "att-nyika", "name": "Nyika National Park", "level": "attraction", "category": "national-park", "region": "Northern Region", "description": "Rolling montane grassland plateau with antelope, zebra and superb hiking.", "website": "https://en.wikipedia.org/wiki/Nyika_National_Park", "images": [] }, "geometry": { "type": "Point", "coordinates": [33.83, -10.62] } },
    { "type": "Feature", "properties": { "id": "att-mulanje", "name": "Mount Mulanje", "level": "attraction", "category": "mountain", "region": "Southern Region", "description": "Granite massif rising to Sapitwa (3002 m) — Malawi's premier trekking destination.", "website": "https://en.wikipedia.org/wiki/Mulanje_Massif", "images": [] }, "geometry": { "type": "Point", "coordinates": [35.62, -16.03] } },
    { "type": "Feature", "properties": { "id": "att-zomba", "name": "Zomba Plateau", "level": "attraction", "category": "plateau", "region": "Southern Region", "description": "Forested plateau of viewpoints, waterfalls and trout dams above old Zomba.", "website": "https://en.wikipedia.org/wiki/Zomba_Plateau", "images": [] }, "geometry": { "type": "Point", "coordinates": [35.30, -15.31] } },
    { "type": "Feature", "properties": { "id": "att-nkhatabay", "name": "Nkhata Bay", "level": "attraction", "category": "beach", "region": "Northern Region", "description": "Lively lakeshore town with diving, cliff-jumping and a Caribbean feel.", "website": "https://en.wikipedia.org/wiki/Nkhata_Bay", "images": [] }, "geometry": { "type": "Point", "coordinates": [34.30, -11.60] } },
    { "type": "Feature", "properties": { "id": "att-kande", "name": "Kande Beach", "level": "attraction", "category": "beach", "region": "Northern Region", "description": "Popular sandy backpacker beach on the lake's western shore.", "website": "https://en.wikipedia.org/wiki/Special:Search?search=Kande%20Beach%20Malawi", "images": [] }, "geometry": { "type": "Point", "coordinates": [34.12, -11.95] } },
    { "type": "Feature", "properties": { "id": "att-livingstonia", "name": "Livingstonia", "level": "attraction", "category": "cultural", "region": "Northern Region", "description": "Historic Scottish mission town high above the lake, with museum and church.", "website": "https://en.wikipedia.org/wiki/Livingstonia", "images": [] }, "geometry": { "type": "Point", "coordinates": [34.10, -10.60] } },
    { "type": "Feature", "properties": { "id": "att-manchewe", "name": "Manchewe Falls", "level": "attraction", "category": "waterfall", "region": "Northern Region", "description": "Dramatic ~125 m waterfall near Livingstonia with a cave behind the cascade.", "website": "https://en.wikipedia.org/wiki/Special:Search?search=Manchewe%20Falls", "images": [] }, "geometry": { "type": "Point", "coordinates": [34.12, -10.62] } },
    { "type": "Feature", "properties": { "id": "att-chongoni", "name": "Chongoni Rock Art Area", "level": "attraction", "category": "cultural", "region": "Central Region", "description": "UNESCO World Heritage site near Dedza with ancient granite rock paintings.", "website": "https://en.wikipedia.org/wiki/Chongoni_Rock_Art_Area", "images": [] }, "geometry": { "type": "Point", "coordinates": [34.28, -14.30] } },
    { "type": "Feature", "properties": { "id": "att-kasungu", "name": "Kasungu National Park", "level": "attraction", "category": "national-park", "region": "Central Region", "description": "Miombo-woodland park on the Zambian border with elephants and antelope.", "website": "https://en.wikipedia.org/wiki/Kasungu_National_Park", "images": [] }, "geometry": { "type": "Point", "coordinates": [33.17, -12.93] } },
    { "type": "Feature", "properties": { "id": "att-nkhotakota", "name": "Nkhotakota Wildlife Reserve", "level": "attraction", "category": "reserve", "region": "Central Region", "description": "Rugged miombo reserve on the Bua River; site of a landmark elephant translocation.", "website": "https://en.wikipedia.org/wiki/Nkhotakota_Wildlife_Reserve", "images": [] }, "geometry": { "type": "Point", "coordinates": [34.30, -12.83] } },
    { "type": "Feature", "properties": { "id": "att-vwaza", "name": "Vwaza Marsh Wildlife Reserve", "level": "attraction", "category": "reserve", "region": "Northern Region", "description": "Wetland-and-woodland reserve with hippos, elephants and rich birdlife.", "website": "https://en.wikipedia.org/wiki/Vwaza_Marsh_Game_Reserve", "images": [] }, "geometry": { "type": "Point", "coordinates": [33.55, -10.95] } },
    { "type": "Feature", "properties": { "id": "att-chilwa", "name": "Lake Chilwa", "level": "attraction", "category": "lake", "region": "Southern Region", "description": "Endorheic lake and Ramsar wetland, one of Africa's most important birding sites.", "website": "https://en.wikipedia.org/wiki/Lake_Chilwa", "images": [] }, "geometry": { "type": "Point", "coordinates": [35.70, -15.30] } },
    { "type": "Feature", "properties": { "id": "att-sengabay", "name": "Senga Bay (Salima)", "level": "attraction", "category": "beach", "region": "Central Region", "description": "The closest lake beach to Lilongwe — resorts, boat trips and birding.", "website": "https://en.wikipedia.org/wiki/Special:Search?search=Senga%20Bay%20Malawi", "images": [] }, "geometry": { "type": "Point", "coordinates": [34.62, -13.74] } }
  ]
}
